City_ID,City,Lat,Lng,Max Temp,Humidity,Cloudiness,Wind Speed,Country,Date
0,gadzhiyevo,69.2551,33.3362,-16.07,96,100,3.27,RU,1705400928
1,sao joao da barra,-21.6403,-41.0511,27.05,87,3,5.1,BR,1705400877
2,ketchikan,55.3422,-131.6461,0.26,93,100,1.54,US,1705401153
3,tsubata,36.6667,136.7333,2.32,83,99,2.31,JP,1705401153
4,jayapura,-2.5333,140.7,24.66,93,100,1.19,ID,1705401153
5,midvagur,62.0511,-7.1939,-1.54,74,100,9.77,FO,1705401154
6,isiro,2.7739,27.616,34.19,16,44,1.66,CD,1705401154
7,maxixe,-23.8597,35.3472,32.9,62,40,6.69,MZ,1705401154
8,blackmans bay,-43.0167,147.3167,23.07,57,67,2.33,AU,1705400869
9,shimoda,34.6667,138.95,4.5,47,0,2.7,JP,1705401155
10,santyoku,37.4406,129.1708,3.25,42,60,3.33,KR,1705401155
11,iqaluit,63.7506,-68.5145,-4.15,86,100,5.14,CA,1705400869
12,quelimane,-17.8786,36.8883,33.97,59,75,1.54,MZ,1705401156
13,ushuaia,-54.8,-68.3,4.81,87,40,4.63,AR,1705400893
14,invercargill,-46.4,168.35,12.23,79,2,0.45,NZ,1705400880
15,puerto natales,-51.7236,-72.4875,7.25,70,100,0.0,CL,1705400872
16,ilulissat,69.2167,-51.1,-4.99,58,0,5.66,GL,1705400888
17,hyesan,41.4017,128.1778,-14.41,87,2,0.89,KP,1705401157
18,isafjordur,66.0755,-23.124,-5.98,73,100,15.95,IS,1705400885
19,aosta,45.7667,7.4167,1.66,55,45,1.03,IT,1705401157
20,tralee,52.2704,-9.7026,-3.86,93,0,0.51,IE,1705400869
21,renqiu,38.6989,116.0936,0.39,82,100,2.18,CN,1705401159
22,karachi,24.9056,67.0822,27.9,47,20,5.14,PK,1705401010
23,pisco,-13.7,-76.2167,21.03,88,0,4.63,PE,1705400909
24,thunder bay,48.4001,-89.3168,-21.01,65,100,4.63,CA,1705401159
25,ribeira grande,38.5167,-28.7,14.32,82,75,6.69,PT,1705400883
26,bethel,41.3712,-73.414,-3.78,82,100,2.57,US,1705401057
27,la passe,45.5549,-0.8967,3.32,87,100,1.0,FR,1705401160
28,brookings,44.3114,-96.7984,-20.46,69,0,9.26,US,1705401035
29,fale old settlement,-9.3852,-171.2468,29.11,74,100,4.52,TK,1705400904
30,anadyr,64.75,177.4833,-24.72,77,0,5.0,RU,1705400969
31,alice springs,-23.7,133.8833,35.75,30,100,1.34,AU,1705400842
32,enewetak,11.3474,162.3373,26.99,73,96,8.51,MH,1705400940
33,pitimbu,-7.4706,-34.8086,27.33,63,56,4.91,BR,1705401162
34,waitangi,-43.9535,-176.5597,12.68,72,9,5.66,NZ,1705400881
35,huambo,-12.7761,15.7392,14.86,91,100,2.04,AO,1705400900
36,port-aux-francais,-49.35,70.2167,6.54,93,87,8.27,TF,1705400871
37,wailua homesteads,22.0669,-159.378,22.44,68,75,6.17,US,1705400873
38,santana,-0.0583,-51.1817,25.1,94,40,1.03,BR,1705401163
39,raja,8.4596,25.678,30.73,14,52,3.66,SS,1705401163
40,grytviken,-54.2811,-36.5092,2.43,82,31,4.41,GS,1705400871
41,nemuro,43.3236,145.575,-6.77,61,61,7.75,JP,1705400907
42,bilibino,68.0546,166.4372,-36.61,100,100,0.39,RU,1705400875
43,carnarvon,-24.8667,113.6333,24.4,73,2,7.44,AU,1705400922
44,tazovsky,67.4667,78.7,-39.32,99,48,2.36,RU,1705400912
45,remire-montjoly,4.9167,-52.2667,23.02,100,40,0.51,GF,1705400915
46,avarua,-21.2078,-159.775,26.03,89,20,7.72,CK,1705400923
47,port elizabeth,-33.918,25.5701,26.72,59,20,5.14,ZA,1705400896
48,noshiro,40.2039,140.0242,-2.54,71,100,8.74,JP,1705401165
49,sisimiut,66.9395,-53.6735,-2.29,92,59,3.74,GL,1705400975
50,quezon,7.7303,125.0989,23.95,82,100,2.79,PH,1705401165
51,port mathurin,-19.6833,63.4167,27.85,80,100,9.59,MU,1705400889
52,adamstown,-25.066,-130.1015,23.54,75,98,7.31,PN,1705401166
53,umm kaddadah,13.6017,26.6876,23.67,14,68,7.78,SD,1705400981
54,klyuchi,52.2667,79.1667,-17.31,90,6,1.46,RU,1705400904
55,grand-bassam,5.2118,-3.7388,29.98,62,1,2.58,CI,1705401166
56,kristiansund,63.1115,7.732,-2.64,86,75,2.06,NO,1705400893
57,shalya,57.2471,58.7298,-9.84,92,100,5.34,RU,1705401167
58,danghara,38.0958,69.34,11.66,81,100,1.31,TJ,1705401167
59,qaqortoq,60.7167,-46.0333,-3.25,75,100,3.14,GL,1705400912
60,lebu,-37.6167,-73.65,12.94,94,7,6.81,CL,1705400902
61,tsiombe,-25.3,45.4833,28.91,65,97,5.07,MG,1705400931
62,tahe,52.3333,124.7333,-15.45,97,100,0.64,CN,1705401168
63,korla,41.7597,86.1469,-1.33,61,8,2.03,CN,1705401168
64,manokwari,-0.8667,134.0833,25.88,84,100,1.83,ID,1705400987
65,boguchany,58.3814,97.4531,-23.41,95,94,2.24,RU,1705401169
66,abdulino,53.7,53.6667,-9.36,92,100,8.81,RU,1705401169
67,celldomolk,47.2571,17.1503,4.97,52,11,4.15,HU,1705401169
68,fort st. john,56.2499,-120.8529,-17.06,78,100,1.54,CA,1705400949
69,poronaysk,49.2167,143.1167,-22.72,95,55,1.42,RU,1705401169
70,maragogi,-9.0122,-35.2225,28.21,60,53,4.02,BR,1705401170
71,badger,64.8,-147.5333,-8.07,84,100,1.54,US,1705400934
72,vilyuysk,63.7553,121.6247,-24.16,100,100,1.01,RU,1705400965
73,conde,-7.2597,-34.9075,26.7,78,20,2.06,BR,1705400972
74,olonkinbyen,70.9221,-8.7187,-4.17,92,100,11.17,SJ,1705400874
75,hermanus,-34.4187,19.2345,22.21,69,57,7.0,ZA,1705400882
76,lihue,21.9789,-159.3672,22.77,68,75,6.17,US,1705400920
77,margaret river,-33.95,115.0667,29.93,46,94,6.85,AU,1705400911
78,red hill,33.9996,-79.2581,12.92,32,33,2.48,US,1705401171
79,parvatipuram,18.7833,83.4333,30.23,36,40,3.69,IN,1705401171
80,broken hill,-31.95,141.4333,24.75,71,100,5.96,AU,1705401172
81,haparanda,65.8355,24.1368,-15.97,93,100,3.65,SE,1705401172
82,saint-pierre,-21.3393,55.4781,29.55,79,75,4.12,RE,1705401172
83,kuching,1.55,110.3333,27.83,94,40,0.51,MY,1705401172
84,chinde,26.8418,88.0763,8.17,51,5,1.7,NP,1705401173
85,hasaki,35.7333,140.8333,1.22,43,34,10.04,JP,1705400902
86,palikir - national government center,6.9248,158.1611,27.41,78,75,1.54,FM,1705401173
87,crane,31.3974,-102.3501,-8.46,42,84,4.15,US,1705401173
88,edinburgh of the seven seas,-37.0676,-12.3116,18.45,94,99,8.59,SH,1705401174
89,atafu village,-8.5421,-172.5159,29.41,71,99,4.05,TK,1705400873
90,thompson,55.7435,-97.8558,-20.91,71,100,5.14,CA,1705400880
91,akita,39.7167,140.1167,-1.48,86,75,6.69,JP,1705401174
92,viedma,-40.8135,-62.9967,18.6,75,4,4.04,AR,1705400960
93,stanley,54.868,-1.6985,-0.26,86,0,2.57,GB,1705400870
94,porto seguro,-16.4497,-39.0647,25.29,94,40,1.54,BR,1705401175
95,bredasdorp,-34.5322,20.0403,24.19,55,73,6.78,ZA,1705400883
96,weyburn,49.6668,-103.8511,-25.88,48,35,3.6,CA,1705401008
97,illapel,-31.6308,-71.1653,17.67,64,0,1.35,CL,1705401175
98,arraial do cabo,-22.9661,-42.0278,26.92,78,0,4.12,BR,1705400943
99,fenghuang,27.9356,109.5996,5.19,92,100,2.02,CN,1705401176
100,vilyuchinsk,52.9306,158.4028,-6.85,94,100,4.08,RU,1705400967
101,san patricio,28.017,-97.5169,-2.87,42,46,9.07,US,1705400902
102,maues,-3.3836,-57.7186,23.72,96,44,1.23,BR,1705401176
103,vadso,70.0744,29.7487,-9.91,79,75,4.12,NO,1705400886
104,ancud,-41.8697,-73.8203,9.33,92,13,1.89,CL,1705400944
105,puerto san jose,13.9256,-90.8244,23.32,83,75,2.22,GT,1705400893
106,revda,56.801,59.9303,-8.93,79,100,5.38,RU,1705401177
107,uturoa,-16.7333,-151.4333,27.27,82,95,10.09,PF,1705400900
108,el granada,37.5027,-122.4694,11.31,93,100,0.0,US,1705401177
109,togur,58.3631,82.8265,-23.25,96,74,3.13,RU,1705400974
110,were ilu,10.6,39.4333,21.7,29,94,5.26,ET,1705401178
111,aspen,39.1911,-106.8175,-11.96,72,0,2.57,US,1705401007
112,queenstown,-31.8976,26.8753,27.83,43,26,5.24,ZA,1705401015
113,yellowknife,62.456,-114.3525,-31.44,84,20,2.57,CA,1705400899
114,west island,-12.1568,96.8225,29.99,84,9,4.63,CC,1705400870
115,banda aceh,5.5577,95.3222,28.47,74,60,5.52,ID,1705401179
116,punta arenas,-53.15,-70.9167,9.06,76,75,3.09,CL,1705400883
117,wynyard,-41.0,145.7167,18.05,90,3,4.84,AU,1705400887
118,tolanaro,-25.0319,46.9987,29.04,79,40,5.14,MG,1705400871
119,tiksi,71.6872,128.8694,-29.63,98,99,2.7,RU,1705400943
120,indergarh,26.9352,79.6724,18.77,30,29,1.33,IN,1705401119
121,nova sintra,14.8667,-24.7167,22.13,71,99,3.75,CV,1705400896
122,bardai,11.65,7.2333,25.25,11,18,8.29,NG,1705401181
123,talnakh,69.4865,88.3972,-33.22,97,98,3.0,RU,1705400954
124,yeosu,34.7546,127.6599,4.35,40,94,0.91,KR,1705401181
125,dongcun,36.7767,121.1597,0.42,79,82,2.68,CN,1705401181
126,paso de los toros,-32.8167,-56.5167,23.56,65,88,5.49,UY,1705401182
127,margate,51.3813,1.3862,2.61,64,67,2.24,GB,1705400990
128,bargaal,11.2864,51.0773,28.12,65,14,5.89,SO,1705401182
129,doaba,33.4244,70.7364,16.07,22,1,2.2,PK,1705401182
130,whitehorse,60.7161,-135.0538,-18.57,84,20,1.54,CA,1705400884
131,isangel,-19.55,169.2667,26.58,88,25,3.66,VU,1705401183
132,katsuura,35.1333,140.3,5.53,44,0,10.62,JP,1705401183
133,colonia,50.9333,6.95,2.2,73,0,5.14,DE,1705400972
134,jamestown,42.097,-79.2353,-8.23,66,100,3.09,US,1705400854
135,barra de santo antonio,-9.4047,-35.5072,26.6,61,42,4.04,BR,1705401184
136,nirgua,10.1553,-68.5663,18.56,95,53,0.22,VE,1705401184
137,praia da vitoria,38.7333,-27.0667,12.09,87,20,4.44,PT,1705400919
138,haiku-pauwela,20.9219,-156.3051,23.36,88,75,8.23,US,1705401185
139,bytow,54.1706,17.4919,-3.77,53,30,4.29,PL,1705401185
140,papatowai,-46.5619,169.4708,10.07,92,5,1.4,NZ,1705400866
141,san luis de la loma,17.2706,-100.8939,23.08,78,9,1.24,MX,1705401185
142,constantia,44.1833,28.65,7.61,60,60,7.15,RO,1705400882
143,yemanzhelinsk,54.7547,61.3208,-14.34,79,100,6.4,RU,1705401186
144,sakaiminato,35.55,133.2333,4.99,52,40,1.03,JP,1705401186
145,beaconsfield,45.4334,-73.8659,-6.63,85,100,1.03,CA,1705401186
146,zapolyarnyy,69.4154,30.8136,-17.4,95,100,2.85,RU,1705401186
147,coari,-4.085,-63.1414,23.67,98,78,1.22,BR,1705401187
148,mount pearl,47.5166,-52.7813,-3.25,75,40,8.75,CA,1705400992
149,vernon,50.2581,-119.2691,-12.61,73,100,2.57,CA,1705401018
150,malvan,16.0667,73.4667,26.86,55,37,6.2,IN,1705401187
151,borazjan,29.2666,51.2159,24.73,35,46,4.71,IR,1705401187
152,skovorodino,53.9833,123.9167,-17.9,99,100,0.39,RU,1705401188
153,albany,42.6001,-73.9662,-5.43,78,100,1.31,US,1705400732
154,bhimunipatnam,17.8833,83.4333,26.73,74,80,6.14,IN,1705401188
155,hithadhoo,-0.6,73.0833,28.25,69,8,5.62,MV,1705400988
156,puerto ayora,-0.7393,-90.3518,24.75,97,21,1.79,EC,1705400904
157,samana,19.2056,-69.3369,25.02,80,91,5.52,DO,1705401016
158,donetsk,48.0,37.8,4.62,95,100,8.39,UA,1705401189
159,tamanrasset,22.785,5.5228,21.95,5,0,1.03,DZ,1705401190
160,nabire,-3.3667,135.4833,25.08,92,100,0.88,ID,1705400939
161,harrai,22.6167,79.2167,24.97,28,3,1.88,IN,1705401190
162,mountain home,43.133,-115.6912,-16.99,65,0,1.54,US,1705401190
163,maintirano,-18.0667,44.0167,29.24,73,79,6.48,MG,1705400991
164,aasiaat,68.7098,-52.8699,-16.54,90,16,2.15,GL,1705400878
165,hamilton,39.1834,-84.5333,-11.65,74,100,5.66,US,1705401191
166,sao gabriel da cachoeira,-0.1303,-67.0892,22.93,97,70,0.8,BR,1705401191
167,pedernales,18.0384,-71.744,24.35,67,0,1.05,DO,1705401192
168,kardla,58.9978,22.7492,-9.97,78,94,6.71,EE,1705401192
169,hawaiian paradise park,19.5933,-154.9731,22.8,96,40,2.57,US,1705400877
170,usogorsk,63.4106,48.6872,-11.85,95,100,4.01,RU,1705401192
171,fortuna,40.5982,-124.1573,9.4,97,100,1.79,US,1705401193
172,kirensk,57.7853,108.1119,-19.18,95,100,4.78,RU,1705401193
173,nantucket,41.2835,-70.0995,-0.57,94,100,5.71,US,1705400971
174,merizo village,13.2658,144.6691,26.85,87,65,7.32,GU,1705400988
175,ra's bayrut,33.9,35.4833,17.81,52,75,7.2,LB,1705401194
176,kone,-21.0595,164.8658,26.01,84,100,2.1,NC,1705401194
177,namibe,-15.1961,12.1522,25.37,63,97,3.78,AO,1705400879
178,castro,-24.7911,-50.0119,22.77,81,82,1.58,BR,1705401194
179,saipan,15.1355,145.701,24.39,88,100,5.14,MP,1705400880
180,colares,38.7992,-9.4469,17.96,94,75,11.32,PT,1705401195
181,dunedin,-45.8742,170.5036,13.78,79,18,4.47,NZ,1705400902
182,ust-nera,64.5667,143.2,-40.56,99,68,1.96,RU,1705400940
183,dudinka,69.4058,86.1778,-31.85,90,98,5.81,RU,1705400910
184,kajaani,64.2273,27.7285,-20.97,84,100,0.51,FI,1705401196
185,utrik,11.2278,169.8474,26.31,73,92,9.07,MH,1705400890
186,pasni,25.2631,63.471,24.54,59,20,7.07,PK,1705401196
187,al kharijah,25.4514,30.5464,18.99,31,0,3.91,EG,1705401196
188,selfoss,63.9331,-20.9971,-6.09,55,57,5.56,IS,1705401196
189,giyani,-23.3025,30.7187,34.53,38,100,2.86,ZA,1705401103
190,havre,49.5833,0.3333,3.22,80,100,1.54,FR,1705401197
191,santa maria del oro,25.9333,-105.3667,5.92,38,53,1.75,MX,1705401197
192,gafsa,34.425,8.7842,17.12,36,0,0.51,TN,1705401197
193,salinas,36.6777,-121.6555,10.96,94,0,0.0,US,1705401198
194,minas de marcona,-15.2119,-75.1103,17.04,86,99,3.53,PE,1705401010
195,deogarh,21.5333,84.7333,27.21,37,24,1.57,IN,1705401198
196,college,64.8569,-147.8028,-8.03,82,100,1.54,US,1705400908
197,westport,41.1415,-73.3579,-1.72,83,100,3.09,US,1705400964
198,agat village,13.3886,144.6585,27.06,85,0,4.12,GU,1705401199
199,rengasdengklok,-6.1592,107.2981,32.07,74,85,4.61,ID,1705401199
200,ad dilam,23.9915,47.1627,24.23,27,69,2.51,SA,1705401199
201,jauharabad,32.2898,72.2813,20.85,14,0,1.67,PK,1705401200
202,magadan,59.5667,150.8,-28.04,77,80,2.91,RU,1705401200
203,san antonio de pale,-1.4014,5.6325,26.83,81,95,3.88,GQ,1705400978
204,ta`u,-14.2336,-169.5144,25.79,89,100,6.58,AS,1705400990
205,yeniseysk,58.4497,92.1703,-27.25,99,92,1.34,RU,1705400932
206,ballina,-28.8667,153.5667,23.21,89,100,4.2,AU,1705400994
207,richards bay,-28.783,32.0377,27.45,63,79,3.3,ZA,1705400963
208,kodiak,57.79,-152.4072,2.73,52,0,7.72,US,1705400582
209,howard springs,-12.497,131.047,29.43,86,100,8.79,AU,1705401201
210,port lincoln,-34.7333,135.8667,17.19,83,84,7.01,AU,1705400925
211,smidovich,48.6,133.8167,-17.25,91,98,3.32,RU,1705401202
212,visakhapatnam,17.69,83.2093,26.94,69,40,5.14,IN,1705401202
213,sao jose da coroa grande,-8.8978,-35.1478,28.07,60,54,4.02,BR,1705401202
214,bukama,-9.2,25.85,27.0,73,94,2.46,CD,1705401203
215,rio grande,-32.035,-52.0986,24.06,88,0,3.34,BR,1705400924
216,mccook,40.2019,-100.6257,-23.54,67,0,5.66,US,1705401203
217,fairwood,47.4484,-122.1573,-2.17,58,0,4.63,US,1705401204
218,kapit,2.0167,112.9333,24.87,98,99,0.72,MY,1705401204
219,miracema do tocantins,-9.5618,-48.3967,25.78,79,30,1.33,BR,1705401204
220,nawabganj,24.5911,88.271,21.87,38,0,1.37,BD,1705401206
221,liaoyuan,42.9036,125.1358,-9.42,80,3,3.12,CN,1705401206
222,palpala,-24.2565,-65.2116,22.57,88,0,2.57,AR,1705401206
223,macau,22.2006,113.5461,19.89,77,20,5.14,MO,1705400960
224,danane,7.2596,-8.155,32.83,36,5,0.62,CI,1705401207
225,kapuskasing,49.4169,-82.4331,-15.95,85,100,1.54,CA,1705400877
226,pak phanang,8.3511,100.202,28.01,76,53,3.68,TH,1705401207
227,gangtok,27.3333,88.6167,9.61,67,73,1.77,IN,1705401207
228,al kharj,24.155,47.3346,24.32,26,78,2.94,SA,1705401208
229,klaksvik,62.2266,-6.589,-1.49,66,100,13.62,FO,1705401208
230,sola,-13.8833,167.55,28.55,81,99,4.28,VU,1705401208
231,sittwe,20.15,92.9,22.08,52,0,5.75,MM,1705401208
232,ceerigaabo,10.6162,47.368,22.66,44,52,3.75,SO,1705401208
233,chonchi,-42.6128,-73.8092,10.07,95,60,0.86,CL,1705400892
234,aldan,58.6031,125.3894,-18.52,95,100,4.91,RU,1705401209
235,turinsk,58.0458,63.696,-10.61,81,99,4.88,RU,1705401209
236,oktyabr'skiy,54.4815,53.471,-11.96,89,100,8.22,RU,1705401188
237,colonia menno,-22.3667,-59.8167,30.3,53,5,8.82,PY,1705401210
238,khorixas,-20.3667,14.9667,26.7,26,98,5.16,NA,1705401210
239,alaghsas,17.0187,8.0168,22.94,18,0,8.75,NE,1705400924
240,loja,-3.9931,-79.2042,14.14,92,98,1.79,EC,1705401210
241,chittaurgarh,24.8833,74.6333,25.62,22,3,2.59,IN,1705401211
242,christchurch,-43.5333,172.6333,17.17,72,8,6.69,NZ,1705400614
243,urengoy,65.9667,78.3667,-34.71,100,17,2.75,RU,1705401211
244,simiti,7.9579,-73.9436,24.51,69,5,1.08,CO,1705401211
245,georgetown,5.4112,100.3354,29.97,73,40,4.12,MY,1705400864
246,tura,25.5198,90.2201,21.19,38,2,2.02,IN,1705400920
247,zhigalovo,54.8097,105.1578,-18.76,97,100,2.31,RU,1705401212
248,lompoc,34.6391,-120.4579,10.29,96,100,3.6,US,1705401212
249,kaoma,-14.7833,24.8,26.14,62,96,4.64,ZM,1705401213
250,san carlos,9.6612,-68.5827,22.75,82,11,0.5,VE,1705401213
251,akureyri,65.6835,-18.0878,-7.04,86,100,8.23,IS,1705400973
252,saudarkrokur,65.7461,-19.6394,-8.07,86,100,11.3,IS,1705400937
253,daru,-9.0763,143.2092,27.85,84,100,2.61,PG,1705401213
254,ponta delgada,37.7333,-25.6667,13.4,88,40,8.75,PT,1705401214
255,saltillo,25.4167,-101.0,6.76,66,87,2.2,MX,1705401084
256,oum hadjer,13.2954,19.6966,28.7,13,77,2.53,TD,1705401214
257,dryden,49.7833,-92.7503,-22.84,77,75,4.63,CA,1705400873
258,keflavik,64.0049,-22.5624,-5.76,63,75,11.32,IS,1705400878
259,bakchar,57.0186,82.0711,-21.68,98,74,2.31,RU,1705401215
260,bayganin,48.6947,55.8742,-11.37,81,58,6.53,KZ,1705401215
261,port augusta,-32.5,137.7667,24.47,77,100,2.55,AU,1705400935
262,caleta de carquin,-11.0925,-77.6267,21.91,87,99,3.96,PE,1705400972
263,nar'yan-mar,67.6713,53.087,-26.61,98,86,3.58,RU,1705400876
264,iaciara,-14.0958,-46.6317,24.19,78,6,0.51,BR,1705401216
265,shiguai,40.7058,110.2856,-5.24,88,98,1.57,CN,1705401217
266,prince rupert,54.3161,-130.3201,-1.17,100,100,3.6,CA,1705400984
267,maua,-23.6678,-46.4614,25.76,79,96,2.91,BR,1705401217
268,ivankiv,50.9386,29.8943,-3.15,79,79,6.97,UA,1705401218
269,antalaha,-14.9003,50.2788,26.29,85,100,2.23,MG,1705401218
270,nova xavantina,-14.6667,-52.35,25.01,84,46,0.85,BR,1705401218
271,aykhal,66.0,111.5,-30.73,99,100,2.8,RU,1705401218
272,tromso,69.6496,18.957,-8.99,48,0,6.17,NO,1705400898
273,oltinko'l,40.8011,72.1634,8.21,77,100,1.28,UZ,1705401219
274,along,28.1667,94.7667,21.91,44,85,0.23,IN,1705400907
275,eyl,7.9803,49.8164,30.03,61,6,11.04,SO,1705401219
276,geraldton,-28.7667,114.6,25.23,69,40,5.14,AU,1705401219
277,kailua-kona,19.6406,-155.9956,25.28,81,20,4.12,US,1705400886
278,taksimo,56.3444,114.8794,-21.02,94,81,0.64,RU,1705400976
279,beloyarskiy,63.7119,66.6722,-26.11,100,83,1.34,RU,1705400871
280,luderitz,-26.6481,15.1594,26.06,53,0,12.78,NA,1705400890
281,miandrivazo,-19.5167,45.4667,30.05,68,100,2.14,MG,1705401220
282,susuman,62.7833,148.1667,-36.12,99,95,0.89,RU,1705400984
283,severo-yeniseyskiy,60.3725,93.0408,-25.24,95,95,3.13,RU,1705400958
284,iquique,-20.2208,-70.1431,21.02,77,66,0.91,CL,1705401133
285,mount isa,-20.7333,139.5,29.87,66,100,3.09,AU,1705400957
286,ribeira brava,32.65,-17.0667,21.51,89,60,9.38,PT,1705401221
287,port alfred,-33.5906,26.891,25.66,71,55,3.13,ZA,1705400927
288,el sauzal de rodriguez,31.9,-116.6833,12.1,85,22,2.2,MX,1705401222
289,boca do acre,-8.7522,-67.3978,23.82,91,99,0.96,BR,1705401222
290,udachny,66.4167,112.4,-31.8,99,100,2.1,RU,1705400913
291,touros,-5.1989,-35.4608,27.7,66,72,6.98,BR,1705400873
292,petropavlovsk-kamchatsky,53.0452,158.6483,-7.67,85,100,6.0,RU,1705400876
293,bambanglipuro,-7.95,110.2833,27.41,77,54,2.01,ID,1705401223
294,oliver,49.1831,-119.5524,-13.05,72,100,0.0,CA,1705401223
295,ugoofaaru,5.6667,73.0,27.28,71,83,1.3,MV,1705401223
296,mil'kovo,55.6078,37.7956,-1.44,93,99,3.66,RU,1705401224
297,baracoa,20.3467,-74.4958,24.12,88,43,1.25,CU,1705401224
298,warrnambool,-38.3833,142.4833,19.07,92,57,3.12,AU,1705401071
299,ghanzi,-21.5667,21.7833,30.0,42,100,5.74,BW,1705401224
300,puerto baquerizo moreno,-0.9,-89.6,24.12,86,14,3.9,EC,1705400906
301,shingu,33.7333,135.9833,2.39,65,1,3.61,JP,1705400926
302,rongelap,11.1635,166.8941,26.58,76,100,9.11,MH,1705400894
303,nieuw amsterdam,5.8833,-55.0833,24.09,94,20,0.0,SR,1705401225
304,lazaro cardenas,17.9583,-102.2,21.38,73,3,1.87,MX,1705400949
305,batroun,34.2553,35.6581,17.24,61,100,10.11,LB,1705401226
306,sainte-marie,-20.8968,55.5496,30.07,79,75,1.03,RE,1705401226
307,luanco,43.6152,-5.7934,13.34,95,100,2.43,ES,1705401226
308,hailey,43.5196,-114.3153,-18.08,78,0,3.09,US,1705401226
309,mejit,10.2753,170.8646,26.66,71,100,8.88,MH,1705400947
310,port macquarie,-31.4333,152.9167,22.16,89,80,3.09,AU,1705401227
311,pacifica,37.6138,-122.4869,11.19,91,75,2.68,US,1705401227
312,borova,50.1763,30.1043,0.75,74,87,7.75,UA,1705401227
313,guaiba,-30.1139,-51.325,25.16,89,0,2.57,BR,1705401227
314,saint-francois,46.4154,3.9054,-0.2,93,100,3.6,FR,1705400910
315,freshwater,50.692,-1.5079,4.4,57,28,1.35,GB,1705401228
316,vila velha,-20.3297,-40.2925,27.97,73,20,3.6,BR,1705400935
317,akhuryan,40.78,43.9003,-1.16,69,75,2.06,AM,1705401228
318,hue,16.4667,107.6,24.06,78,20,5.66,VN,1705401228
319,zmeinogorsk,51.1567,82.195,-23.92,100,23,1.59,RU,1705401229
320,vorgashor,67.5833,63.95,-25.36,100,98,1.83,RU,1705400888
321,cabo san lucas,22.8909,-109.9124,18.2,74,100,1.54,MX,1705401029
322,vakarai,55.6035,23.8213,-7.71,77,98,6.32,LT,1705401229
323,iwon-up,40.3231,128.6553,-1.36,59,0,3.31,KP,1705401230
324,kapa'a,22.0752,-159.319,23.18,68,75,6.17,US,1705400877
325,princeville,45.7668,-61.2985,-4.82,84,100,0.0,CA,1705400882
326,ola,59.5833,151.2833,-27.7,86,87,3.58,RU,1705400946
327,salmon arm,50.6998,-119.3024,-13.38,72,100,1.03,CA,1705401230
328,yendi,9.4427,-0.0099,32.56,7,3,3.59,GH,1705401231
329,spring hill,28.4769,-82.5255,20.7,98,100,3.6,US,1705401065
330,longyearbyen,78.2186,15.6401,-21.09,54,20,7.2,SJ,1705400886
331,ardestan,33.3761,52.3694,14.66,28,0,1.04,IR,1705401231
332,slave lake,55.2834,-114.769,-20.01,84,100,2.57,CA,1705401231
333,saldanha,-33.0117,17.9442,20.0,75,25,8.41,ZA,1705400901
334,la'ie,21.6477,-157.9253,25.98,77,28,4.52,US,1705401182
335,east london,-33.0153,27.9116,23.32,71,61,5.37,ZA,1705400869
336,hastings,50.8552,0.5729,3.07,58,27,2.77,GB,1705401232
337,kruisfontein,-34.0033,24.7314,25.49,52,4,5.73,ZA,1705400939
338,tocopilla,-22.092,-70.1979,21.24,73,58,0.5,CL,1705401233
339,iwanai,42.9744,140.5089,-4.2,77,100,4.69,JP,1705401233
340,keren,15.7778,38.4581,26.28,41,3,4.52,ER,1705401233
341,choma,-16.8065,26.9531,18.82,97,99,2.96,ZM,1705401233
342,badiyah,22.45,58.8,31.82,12,38,1.95,OM,1705401234
343,alvaraes,-3.2208,-64.8042,23.46,98,100,1.05,BR,1705401234
344,guerrero negro,27.9769,-114.0611,15.3,88,34,3.8,MX,1705400934
345,sorong,-0.8833,131.25,27.95,77,91,5.75,ID,1705401234
346,iskateley,67.6803,53.1512,-26.66,98,87,3.58,RU,1705400989
347,kauhava,63.103,23.0713,-17.6,98,99,2.64,FI,1705401235
348,gus'-khrustal'nyy,55.6111,40.6519,-2.3,94,100,3.27,RU,1705401235
349,deming,32.2687,-107.7586,0.94,60,0,4.63,US,1705401235
350,plouzane,48.3833,-4.6167,3.1,70,0,4.63,FR,1705401236
351,sydney mines,46.2367,-60.2177,-5.56,80,20,3.09,CA,1705401236
352,lucas,41.6501,-83.6666,-12.68,80,100,3.6,US,1705401236
353,lucapa,-8.4192,20.7447,26.38,65,81,4.25,AO,1705401236
354,nykvarn,59.8,18.3,-10.1,72,10,2.4,SE,1705401237
355,markovo,57.3206,107.0881,-19.18,94,100,4.08,RU,1705401237
356,yangiobod,41.1192,70.0941,1.85,100,100,2.35,UZ,1705401237
357,bumba,2.1833,22.4667,36.82,17,79,0.72,CD,1705401238
358,kavaratti,10.5669,72.642,28.23,66,11,4.79,IN,1705401238
359,callao,-12.0667,-77.15,23.18,83,20,3.6,PE,1705401238
360,newman,37.3138,-121.0208,10.13,87,17,0.45,US,1705400827
361,taupo,-38.6833,176.0833,13.85,86,3,2.2,NZ,1705401239
362,ust-tsilma,65.441,52.1498,-13.24,95,100,3.08,RU,1705401239
363,launceston,-41.45,147.1667,20.8,68,28,5.14,AU,1705401168
364,qarqaraly,49.4058,75.4742,-19.29,92,6,1.5,KZ,1705401239
365,adler,43.43,39.92,16.09,31,100,9.0,RU,1705401239
366,kuta,-8.7233,115.1723,30.0,74,20,4.12,ID,1705401240
367,lepsy,46.235,78.9456,-9.29,85,42,4.23,KZ,1705401240
368,le port,-20.9373,55.2919,29.98,73,73,8.03,RE,1705401240
369,sungai besar,3.6746,100.9867,25.56,89,100,0.91,MY,1705401180
370,lerwick,60.1545,-1.1494,-1.0,61,100,8.04,GB,1705400930
371,saint-philippe,-21.3585,55.7679,29.51,80,95,6.89,RE,1705401241
372,flying fish cove,-10.4217,105.6791,27.82,83,40,2.57,CX,1705400907
373,mendi,-6.1761,143.6513,14.9,97,100,0.78,PG,1705401241
374,ujae,8.9322,165.7642,27.35,72,100,9.05,MH,1705401241
375,hadibu,12.65,54.0333,27.05,64,28,4.47,YE,1705400957
376,valday,57.9747,33.2525,-2.2,95,100,4.02,RU,1705401242
377,pachelma,53.2443,43.3521,0.62,98,100,9.53,RU,1705401242
378,shimanovsk,52.0,127.7,-15.34,90,100,1.66,RU,1705401242
379,yayva,59.3303,57.2641,-11.57,92,100,4.51,RU,1705401242
380,odienne,9.51,-7.5692,33.52,9,0,1.78,CI,1705401243
381,cole harbour,44.6724,-63.4751,0.95,88,97,2.08,CA,1705401243
382,sona,45.4388,10.8255,7.35,72,0,2.06,IT,1705401243
383,brasileia,-11.0161,-68.7481,25.25,94,75,1.03,BR,1705401243
384,st. john's,47.5649,-52.7093,-2.96,75,40,8.75,CA,1705400642
385,yoichi,43.2039,140.7703,-3.89,77,98,5.38,JP,1705401244
386,berdigestyakh,62.0989,126.6992,-20.48,95,100,2.83,RU,1705401244
387,new norfolk,-42.7826,147.0587,23.73,58,96,0.8,AU,1705400929
388,san antonio,29.4241,-98.4936,-5.22,51,0,7.2,US,1705400448
389,ha tinh,18.3333,105.9,21.31,78,37,2.19,VN,1705401015
390,hirara,24.8,125.2833,19.15,59,75,7.72,JP,1705401245
391,souillac,-20.5167,57.5167,27.21,83,100,8.75,MU,1705401245
392,afaahiti,-17.75,-149.2833,25.93,84,100,10.0,PF,1705400936
393,amasra,41.7463,32.3863,10.03,98,100,3.32,TR,1705401246
394,yicheng,31.3705,119.8703,9.02,72,27,6.34,CN,1705401246
395,east grinstead,51.1238,-0.0061,2.37,77,0,1.03,GB,1705401246
396,chabahar,25.2919,60.643,25.29,56,7,6.6,IR,1705401247
397,faranah,10.0404,-10.7434,32.54,27,0,0.64,GN,1705401247
398,saint-mandrier-sur-mer,43.078,5.929,14.55,73,0,6.17,FR,1705401247
399,kuhmo,64.1333,29.5167,-14.21,95,100,2.86,FI,1705400960
400,fauske,67.2588,15.3918,-8.46,86,80,5.03,NO,1705401248
401,celeyke,38.0597,37.1879,2.67,95,100,2.99,TR,1705401248
402,coahuayana de hidalgo,18.7,-103.6583,20.25,75,0,1.78,MX,1705400914
403,chui,-33.6971,-53.4616,22.55,83,97,2.49,UY,1705401248
404,emerald,-23.5333,148.1667,29.63,55,45,9.6,AU,1705401249
405,yuzhno-kurilsk,44.0306,145.8556,-7.01,75,100,9.83,RU,1705401249
406,sitka,57.0531,-135.33,1.94,93,100,1.54,US,1705400870
407,yelizovo,53.1873,158.3805,-6.92,93,100,6.0,RU,1705401250
408,yeppoon,-23.1333,150.7333,27.88,85,10,6.75,AU,1705400986
409,leava,-14.3,-178.1667,29.29,77,99,6.14,WF,1705400977
410,kingston,17.997,-76.7936,25.53,80,20,4.12,JM,1705400839
411,nizamabad,18.6667,78.1167,31.1,20,15,2.14,IN,1705401251
412,santa ana,33.7456,-117.8678,13.59,85,0,1.54,US,1705400472
413,muli,2.9167,73.5667,27.34,74,12,4.4,MV,1705401252
414,acajutla,13.5928,-89.8275,24.51,74,49,2.63,SV,1705401252
415,harstad,68.799,16.5293,-10.34,76,62,3.61,NO,1705400951
416,ambovombe,-25.1667,46.0833,27.74,72,77,5.53,MG,1705401252
417,comodoro rivadavia,-45.8667,-67.5,17.92,29,0,4.63,AR,1705401253
418,dwarka,22.2394,68.9678,23.82,60,36,4.29,IN,1705400940
419,zalingei,12.9096,23.4741,28.2,11,36,2.71,SD,1705401253
420,vilhena,-12.7406,-60.1458,21.83,95,46,1.1,BR,1705401253
421,yaren,-0.5472,166.916,28.3,81,100,5.01,NR,1705400924
422,oriximina,-1.7656,-55.8661,23.61,94,65,1.86,BR,1705401254
423,wagoner,35.9595,-95.3694,-15.23,74,34,2.98,US,1705401254
424,bridgewater,44.3835,-64.5155,-0.18,92,100,3.09,CA,1705401254
425,masvingo,-20.0637,30.8277,30.15,43,73,3.34,ZW,1705401255
426,marco island,25.9363,-81.7157,22.79,99,25,3.77,US,1705401255
427,hudiksvall,61.729,17.1036,-13.53,77,74,0.71,SE,1705401255
428,karatau,43.1667,70.4667,-4.22,96,100,1.62,KZ,1705401255
429,kill devil hills,36.0307,-75.676,14.01,85,100,2.57,US,1705401256
430,terenos,-20.4422,-54.8603,25.84,78,0,3.09,BR,1705401256
431,karasu mahallesi,41.071,30.7854,9.67,97,100,3.84,TR,1705401256
432,shahrak,34.1074,64.3052,5.39,48,75,1.9,AF,1705401256
433,hedaru,-4.5,37.9,28.79,58,100,0.69,TZ,1705401257
434,el calafate,-50.3408,-72.2768,9.41,62,100,2.21,AR,1705401101
435,moramanga,-18.9333,48.2,29.79,49,100,2.1,MG,1705401257
436,vedasandur,10.5333,77.95,29.04,46,43,1.34,IN,1705401257
437,arawa,-6.2132,155.5367,26.29,89,98,1.44,PG,1705400922
438,weno,7.4515,151.8468,28.97,74,40,3.6,FM,1705400922
439,mugia,43.1041,-9.2179,17.17,94,100,13.04,ES,1705400935
440,lycksele,64.5954,18.6735,-29.07,76,100,1.03,SE,1705401258
441,pandan,14.0453,124.1694,24.9,79,70,8.98,PH,1705401258
442,labytnangi,66.6572,66.4183,-37.49,99,45,1.69,RU,1705400927
443,tshikapa,-6.4167,20.8,27.04,81,88,2.63,CD,1705401259
444,sernur,56.9333,49.1536,-5.19,92,100,8.14,RU,1705401259
445,borrazopolis,-23.9411,-51.5875,23.21,87,100,0.82,BR,1705401260
446,miyoshi,35.0833,137.0667,5.79,55,1,5.41,JP,1705401260
447,port antonio,18.18,-76.4612,25.95,84,21,4.73,JM,1705401260
448,nikologory,56.1413,41.9922,-5.34,94,100,4.3,RU,1705401260
449,poso,-1.3959,120.7524,26.3,82,100,0.54,ID,1705401261
450,bikenibeu village,1.3673,173.1241,28.98,84,40,2.57,KI,1705400933
451,pemangkat,1.1667,108.9667,26.39,87,99,3.75,ID,1705401261
452,castillos,-34.1667,-53.8333,19.84,82,96,1.43,UY,1705400971
453,sinop,41.7711,34.8709,4.24,81,100,7.53,TR,1705401261
454,egilsstadir,65.2653,-14.3948,-7.05,79,75,6.17,IS,1705400928
455,pionerskiy,54.9508,20.2275,-3.25,55,100,12.33,RU,1705401000
456,cockburn town,21.4612,-71.1419,25.58,85,0,10.7,TC,1705400694
457,elliot lake,46.3834,-82.6331,-18.38,92,93,0.49,CA,1705400912
458,bandarbeyla,9.4942,50.8122,28.23,68,32,9.18,SO,1705400891
459,mangrol,21.1167,70.1167,24.51,49,17,5.56,IN,1705400945
460,bejaia,36.7559,5.0843,18.6,48,0,6.69,DZ,1705401127
461,kharod,21.75,82.5667,26.98,28,21,2.45,IN,1705401263
462,kattivakkam,13.2167,80.3167,29.05,59,1,3.91,IN,1705401263
463,novodvinsk,64.4165,40.8122,-14.14,93,100,4.08,RU,1705401029
464,tazacorte,28.629,-17.9293,25.54,97,40,15.43,ES,1705401264
465,lai,9.3952,16.2989,31.57,11,12,3.17,TD,1705401264
466,igrim,63.1906,64.4162,-19.69,98,89,1.47,RU,1705400872
467,sidi qacem,34.2215,-5.7078,21.12,31,100,1.26,MA,1705401264
468,vodnyy,63.5046,53.4095,-11.32,93,100,3.7,RU,1705401265
469,vila franca do campo,37.7167,-25.4333,13.23,87,84,7.99,PT,1705400912
470,paredon,16.0333,-93.8667,24.49,70,63,1.95,MX,1705401265
471,mount gambier,-37.8333,140.7667,17.65,89,18,3.38,AU,1705400931
472,tadmur,34.5608,38.2805,14.75,48,100,6.43,SY,1705401265
473,prado,-17.3411,-39.2208,25.82,85,21,2.72,BR,1705400879
474,padang,-0.9492,100.3543,31.03,85,100,0.85,ID,1705401266
475,ghardaia,32.4909,3.6735,19.64,13,100,4.63,DZ,1705401266
476,namtsy,62.7161,129.6658,-33.63,99,100,1.15,RU,1705401266
477,bellampalli,19.0558,79.493,30.94,31,7,0.35,IN,1705401267
478,ambodifotatra,-16.9833,49.85,28.99,73,99,3.67,MG,1705401267
479,cidreira,-30.1811,-50.2056,25.32,75,0,2.59,BR,1705401267
480,vostochnyy,55.8167,37.8667,-1.61,92,100,3.55,RU,1705401267
481,amga,60.8953,131.9608,-28.33,99,100,0.19,RU,1705400948
482,tinaquillo,9.9186,-68.3047,20.49,92,2,0.97,VE,1705401268
483,antofagasta,-23.65,-70.4,20.6,88,9,1.13,CL,1705400764
484,nagqu,31.5,92.0,-6.52,27,100,1.43,CN,1705400898
485,gizo,-8.103,156.8419,28.59,82,100,4.11,SB,1705400987
486,opuwo,-18.0607,13.84,26.94,33,94,4.38,NA,1705400962
487,middle island,40.8843,-72.9373,-0.89,92,100,3.09,US,1705401269
488,las khorey,11.1595,48.1967,27.55,73,87,5.17,SO,1705400971
489,tarinkot,32.6268,65.8733,15.55,23,22,1.38,AF,1705401269
490,bonthe,7.5264,-12.505,30.54,60,67,1.11,SL,1705401270
491,turiacu,-1.6633,-45.3717,26.06,90,97,2.61,BR,1705401270
492,alofi,-19.0595,-169.9187,23.94,100,100,5.66,NU,1705400931
493,yuzha,56.5831,42.0122,-2.8,92,100,3.99,RU,1705401270
494,tari,12.4086,4.4914,28.74,9,5,7.26,NG,1705401270
495,meadow lake,34.8014,-106.5436,0.94,62,0,0.92,US,1705401271
496,claremont,34.0967,-117.7198,13.71,80,0,2.57,US,1705401271
497,bozeman,45.6796,-111.0386,-16.71,78,0,2.06,US,1705401271
498,wau,7.7029,27.9953,33.72,12,71,3.02,SS,1705401271
499,necochea,-38.5473,-58.7368,18.65,72,90,2.73,AR,1705401272
500,sarupathar,26.1984,93.8094,25.12,56,1,0.74,IN,1705401272
501,bereket,39.2446,55.5154,5.89,59,0,7.13,TM,1705401272
502,piedras negras,28.7,-100.5167,-3.74,45,0,5.29,MX,1705401272
503,sinabang,2.4803,96.3801,27.82,76,51,0.97,ID,1705401273
504,meulaboh,4.1363,96.1285,28.8,71,47,2.56,ID,1705400939
505,jordanow,49.6493,19.8298,0.43,78,90,5.81,PL,1705401273
506,zouerate,22.7187,-12.4521,24.23,7,97,3.45,MR,1705401273
507,nangen,35.41,127.3858,0.41,49,97,1.12,KR,1705401274
508,cobija,-11.0267,-68.7692,25.1,94,75,1.03,BO,1705401274
509,naracoorte,-36.9579,140.7383,18.96,83,38,4.65,AU,1705401274
510,beyneu,45.3167,55.2,-3.08,76,75,7.52,KZ,1705401275
511,flin flon,54.7682,-101.865,-18.4,94,100,6.16,CA,1705401275
512,glace bay,46.1969,-59.957,-5.68,83,20,3.09,CA,1705401240
513,santanyi,39.3546,3.1291,18.23,81,55,8.53,ES,1705401276
514,santiago de cuba,20.0247,-75.8219,22.06,88,20,2.57,CU,1705401005
515,kidal,18.4411,1.4078,25.26,12,0,6.21,ML,1705401277
516,batticaloa,7.7102,81.6924,26.75,70,78,3.22,LK,1705401277
517,tidjikja,18.5564,-11.4271,27.03,6,22,8.44,MR,1705401278
518,springbok,-29.6643,17.8865,26.38,30,0,7.83,ZA,1705401278
519,karratha,-20.7377,116.8463,29.29,58,63,10.25,AU,1705400960
520,mariental,-24.6333,17.9667,35.06,15,9,3.19,NA,1705400946
521,arkhangel'sk,64.5401,40.5433,-13.94,85,100,6.0,RU,1705401279
522,pangai,-19.8,-174.35,26.42,87,100,5.83,TO,1705401279
523,puerto deseado,-47.7503,-65.8938,12.78,61,96,3.61,AR,1705401279
524,winsted,41.9212,-73.0601,-4.58,91,100,1.79,US,1705401279
525,lautoka,-17.6167,177.4667,25.92,94,75,0.51,FJ,1705400948
526,kamloops,50.6665,-120.3192,-13.01,75,75,4.12,CA,1705401280
527,al bawiti,28.3492,28.8659,17.33,31,16,4.11,EG,1705401280
528,tangalle,6.024,80.7911,30.09,62,15,2.36,LK,1705401280
529,es castell,39.8795,4.2854,16.38,100,20,3.09,ES,1705401280
530,olenegorsk,68.15,33.3,-15.98,89,100,5.7,RU,1705401281
531,happy valley-goose bay,53.3168,-60.3315,-16.83,78,75,0.0,CA,1705400956
532,whangarei,-35.7317,174.3239,18.26,98,63,0.74,NZ,1705401281
533,coquimbo,-29.9533,-71.3436,14.85,94,100,1.03,CL,1705400919
534,blairgowrie,56.5916,-3.3405,0.01,88,100,1.33,GB,1705401281
535,polyarnyy,69.1989,33.4478,-14.81,93,100,3.62,RU,1705401013
536,kievka,50.2619,71.5514,-20.5,90,64,2.28,KZ,1705401282
537,dul'durga,50.6761,113.5931,-10.2,76,94,4.82,RU,1705401282
538,tarauaca,-8.1614,-70.7656,22.38,99,92,0.39,BR,1705400998
539,cascais,38.6979,-9.4215,18.06,95,75,11.32,PT,1705401283
540,mulanje,-16.0316,35.5,27.82,74,89,2.4,MW,1705401283
541,bure,10.7,37.0667,26.78,31,87,2.78,ET,1705401283
542,fort bragg,35.139,-79.006,5.75,87,100,1.54,US,1705401283
543,george town,5.4112,100.3354,29.97,74,40,4.12,MY,1705401167
544,baie-saint-paul,47.4411,-70.4986,-9.53,93,97,1.79,CA,1705401284
545,palma soriano,20.2172,-75.9989,21.48,92,0,0.88,CU,1705401284
546,lagunillas,10.1301,-71.2595,25.29,77,3,1.84,VE,1705401284
547,teguise,29.0605,-13.564,23.12,27,0,5.14,ES,1705401284
548,woodward,36.4337,-99.3904,-14.43,63,75,4.12,US,1705400909
549,isla del bosque,22.7333,-105.85,17.21,66,82,1.62,MX,1705401285
550,nikel,69.4128,30.222,-16.9,89,100,3.72,RU,1705401285
551,pindushi,62.9152,34.58,-7.33,96,100,2.85,RU,1705401285
552,maiurno,13.4167,33.6667,31.0,19,33,6.22,SD,1705401286
553,am timan,11.0297,20.2827,31.92,11,24,3.5,TD,1705401286
554,quellon,-43.1167,-73.6167,11.91,83,57,1.14,CL,1705401146
555,chinchilla,-26.75,150.6333,26.12,78,56,3.13,AU,1705401286
556,morondava,-20.2833,44.2833,29.83,70,100,4.14,MG,1705401287
557,qobustan,40.0824,49.412,7.35,52,17,6.02,AZ,1705400985
